[
  {"name":"Bankstown","postcode":"2200","lat":-33.9175,"lng":151.0353},
  {"name":"Sydney CBD","postcode":"2000","lat":-33.8688,"lng":151.2093},
  {"name":"Surry Hills","postcode":"2010","lat":-33.8823,"lng":151.2106},
  {"name":"Darlinghurst","postcode":"2010","lat":-33.8775,"lng":151.2185},
  {"name":"Potts Point","postcode":"2011","lat":-33.8695,"lng":151.2253},
  {"name":"Paddington","postcode":"2021","lat":-33.8842,"lng":151.2264},
  {"name":"Redfern","postcode":"2016","lat":-33.8932,"lng":151.2044},
  {"name":"Chippendale","postcode":"2008","lat":-33.8874,"lng":151.1985},
  {"name":"Ultimo","postcode":"2007","lat":-33.879,"lng":151.1977},
  {"name":"Pyrmont","postcode":"2009","lat":-33.8699,"lng":151.1945},
  {"name":"Glebe","postcode":"2037","lat":-33.8795,"lng":151.1864},
  {"name":"Newtown","postcode":"2042","lat":-33.8971,"lng":151.1795},
  {"name":"Enmore","postcode":"2042","lat":-33.8994,"lng":151.1721},
  {"name":"Camperdown","postcode":"2050","lat":-33.8895,"lng":151.1772},
  {"name":"Annandale","postcode":"2038","lat":-33.8836,"lng":151.1719},
  {"name":"Leichhardt","postcode":"2040","lat":-33.8832,"lng":151.1573},
  {"name":"Balmain","postcode":"2041","lat":-33.8572,"lng":151.1784},
  {"name":"Rozelle","postcode":"2039","lat":-33.8621,"lng":151.171},
  {"name":"Erskineville","postcode":"2043","lat":-33.9013,"lng":151.1865},
  {"name":"Alexandria","postcode":"2015","lat":-33.9052,"lng":151.1961},
  {"name":"Waterloo","postcode":"2017","lat":-33.9,"lng":151.2053},
  {"name":"Zetland","postcode":"2017","lat":-33.9069,"lng":151.2097},
  {"name":"Haymarket","postcode":"2000","lat":-33.8794,"lng":151.2036},
  {"name":"The Rocks","postcode":"2000","lat":-33.8594,"lng":151.2084},
  {"name":"Woolloomooloo","postcode":"2011","lat":-33.8702,"lng":151.2207},
  {"name":"Elizabeth Bay","postcode":"2011","lat":-33.8718,"lng":151.2274},
  {"name":"Ashfield","postcode":"2131","lat":-33.887,"lng":151.1242},
  {"name":"Burwood","postcode":"2134","lat":-33.8773,"lng":151.1044},
  {"name":"Strathfield","postcode":"2135","lat":-33.8795,"lng":151.0839},
  {"name":"Homebush","postcode":"2140","lat":-33.8658,"lng":151.0849},
  {"name":"Concord","postcode":"2137","lat":-33.8569,"lng":151.1065},
  {"name":"Five Dock","postcode":"2046","lat":-33.8666,"lng":151.13},
  {"name":"Drummoyne","postcode":"2047","lat":-33.8537,"lng":151.15},
  {"name":"Canada Bay","postcode":"2046","lat":-33.8643,"lng":151.1143},
  {"name":"Summer Hill","postcode":"2130","lat":-33.892,"lng":151.1384},
  {"name":"Dulwich Hill","postcode":"2203","lat":-33.9048,"lng":151.1389},
  {"name":"Petersham","postcode":"2049","lat":-33.896,"lng":151.1538},
  {"name":"Stanmore","postcode":"2048","lat":-33.894,"lng":151.1645},
  {"name":"Croydon","postcode":"2132","lat":-33.8837,"lng":151.1164},
  {"name":"Marrickville","postcode":"2204","lat":-33.9109,"lng":151.1556},
  {"name":"Haberfield","postcode":"2045","lat":-33.8796,"lng":151.1384},
  {"name":"Lilyfield","postcode":"2040","lat":-33.87,"lng":151.1634},
  {"name":"Abbotsford","postcode":"2046","lat":-33.8561,"lng":151.1293},
  {"name":"Canterbury","postcode":"2193","lat":-33.9117,"lng":151.1178},
  {"name":"Campsie","postcode":"2194","lat":-33.9116,"lng":151.1037},
  {"name":"Lakemba","postcode":"2195","lat":-33.9194,"lng":151.0768},
  {"name":"Punchbowl","postcode":"2196","lat":-33.9288,"lng":151.0533},
  {"name":"Wiley Park","postcode":"2195","lat":-33.9247,"lng":151.0668},
  {"name":"Belmore","postcode":"2192","lat":-33.9193,"lng":151.0912},
  {"name":"Roselands","postcode":"2196","lat":-33.9338,"lng":151.074},
  {"name":"Earlwood","postcode":"2206","lat":-33.9203,"lng":151.129},
  {"name":"Kingsgrove","postcode":"2208","lat":-33.9401,"lng":151.0992},
  {"name":"Revesby","postcode":"2212","lat":-33.9499,"lng":151.0136},
  {"name":"Padstow","postcode":"2211","lat":-33.9527,"lng":151.033},
  {"name":"Panania","postcode":"2213","lat":-33.9554,"lng":151.0028},
  {"name":"East Hills","postcode":"2213","lat":-33.9618,"lng":150.9892},
  {"name":"Bass Hill","postcode":"2197","lat":-33.9024,"lng":150.9976},
  {"name":"Yagoona","postcode":"2199","lat":-33.9056,"lng":151.0233},
  {"name":"Birrong","postcode":"2143","lat":-33.894,"lng":151.0175},
  {"name":"Condell Park","postcode":"2200","lat":-33.9294,"lng":151.0173},
  {"name":"Greenacre","postcode":"2190","lat":-33.9029,"lng":151.0572},
  {"name":"Chullora","postcode":"2190","lat":-33.8889,"lng":151.0494},
  {"name":"Sefton","postcode":"2162","lat":-33.8924,"lng":151.0098},
  {"name":"Hurstville","postcode":"2220","lat":-33.9676,"lng":151.1019},
  {"name":"Kogarah","postcode":"2217","lat":-33.9632,"lng":151.131},
  {"name":"Rockdale","postcode":"2216","lat":-33.953,"lng":151.137},
  {"name":"Brighton-Le-Sands","postcode":"2216","lat":-33.962,"lng":151.1542},
  {"name":"Sans Souci","postcode":"2219","lat":-33.985,"lng":151.131},
  {"name":"Arncliffe","postcode":"2205","lat":-33.9369,"lng":151.1469},
  {"name":"Bexley","postcode":"2207","lat":-33.9501,"lng":151.1179},
  {"name":"Penshurst","postcode":"2222","lat":-33.9628,"lng":151.0873},
  {"name":"Mortdale","postcode":"2223","lat":-33.9674,"lng":151.0724},
  {"name":"Oatley","postcode":"2223","lat":-33.9834,"lng":151.0734},
  {"name":"Beverly Hills","postcode":"2209","lat":-33.9453,"lng":151.0825},
  {"name":"Allawah","postcode":"2218","lat":-33.97,"lng":151.1105},
  {"name":"Carlton","postcode":"2218","lat":-33.9667,"lng":151.121},
  {"name":"Blakehurst","postcode":"2221","lat":-33.9891,"lng":151.1094},
  {"name":"Sutherland","postcode":"2232","lat":-34.0325,"lng":151.0572},
  {"name":"Cronulla","postcode":"2230","lat":-34.054,"lng":151.1524},
  {"name":"Miranda","postcode":"2228","lat":-34.0358,"lng":151.1022},
  {"name":"Caringbah","postcode":"2229","lat":-34.0447,"lng":151.1223},
  {"name":"Gymea","postcode":"2227","lat":-34.0365,"lng":151.0872},
  {"name":"Engadine","postcode":"2233","lat":-34.0646,"lng":151.0103},
  {"name":"Menai","postcode":"2234","lat":-34.0115,"lng":151.0163},
  {"name":"Kirrawee","postcode":"2232","lat":-34.0339,"lng":151.0714},
  {"name":"Jannali","postcode":"2226","lat":-34.0165,"lng":151.0595},
  {"name":"Sylvania","postcode":"2224","lat":-34.0102,"lng":151.1115},
  {"name":"Bangor","postcode":"2234","lat":-34.0251,"lng":151.0298},
  {"name":"Heathcote","postcode":"2233","lat":-34.0889,"lng":150.9936},
  {"name":"Loftus","postcode":"2232","lat":-34.047,"lng":151.0494},
  {"name":"Liverpool","postcode":"2170","lat":-33.9204,"lng":150.9236},
  {"name":"Fairfield","postcode":"2165","lat":-33.8724,"lng":150.957},
  {"name":"Cabramatta","postcode":"2166","lat":-33.8951,"lng":150.9389},
  {"name":"Canley Vale","postcode":"2166","lat":-33.885,"lng":150.9466},
  {"name":"Wetherill Park","postcode":"2164","lat":-33.8451,"lng":150.9068},
  {"name":"Bonnyrigg","postcode":"2177","lat":-33.8865,"lng":150.8833},
  {"name":"Bossley Park","postcode":"2176","lat":-33.8638,"lng":150.8831},
  {"name":"Cecil Hills","postcode":"2171","lat":-33.8826,"lng":150.8585},
  {"name":"Green Valley","postcode":"2168","lat":-33.9042,"lng":150.8715},
  {"name":"Ingleburn","postcode":"2565","lat":-34.0,"lng":150.8639},
  {"name":"Campbelltown","postcode":"2560","lat":-34.065,"lng":150.8142},
  {"name":"Camden","postcode":"2570","lat":-34.0543,"lng":150.6976},
  {"name":"Narellan","postcode":"2567","lat":-34.0424,"lng":150.7327},
  {"name":"Leppington","postcode":"2179","lat":-33.9622,"lng":150.805},
  {"name":"Prestons","postcode":"2170","lat":-33.9438,"lng":150.8702},
  {"name":"Moorebank","postcode":"2170","lat":-33.9451,"lng":150.9547},
  {"name":"Casula","postcode":"2170","lat":-33.9537,"lng":150.905},
  {"name":"Holsworthy","postcode":"2173","lat":-33.9805,"lng":150.955},
  {"name":"Glenfield","postcode":"2167","lat":-33.9689,"lng":150.8878},
  {"name":"Macquarie Fields","postcode":"2564","lat":-33.9878,"lng":150.877},
  {"name":"Minto","postcode":"2566","lat":-34.0298,"lng":150.8432},
  {"name":"Edmondson Park","postcode":"2174","lat":-33.9621,"lng":150.8584},
  {"name":"Leumeah","postcode":"2560","lat":-34.0543,"lng":150.8347},
  {"name":"Smithfield","postcode":"2164","lat":-33.8495,"lng":150.9378},
  {"name":"Prairiewood","postcode":"2176","lat":-33.86,"lng":150.918},
  {"name":"Edensor Park","postcode":"2176","lat":-33.8773,"lng":150.871},
  {"name":"Abbotsbury","postcode":"2176","lat":-33.8705,"lng":150.8618},
  {"name":"Hoxton Park","postcode":"2171","lat":-33.9316,"lng":150.854},
  {"name":"Parramatta","postcode":"2150","lat":-33.8151,"lng":151.0012},
  {"name":"Auburn","postcode":"2144","lat":-33.8492,"lng":151.0332},
  {"name":"Merrylands","postcode":"2160","lat":-33.8363,"lng":150.9927},
  {"name":"Guildford","postcode":"2161","lat":-33.856,"lng":150.9867},
  {"name":"Granville","postcode":"2142","lat":-33.8321,"lng":151.012},
  {"name":"Westmead","postcode":"2145","lat":-33.8029,"lng":150.9871},
  {"name":"Wentworthville","postcode":"2145","lat":-33.8072,"lng":150.9686},
  {"name":"Pendle Hill","postcode":"2145","lat":-33.8038,"lng":150.9545},
  {"name":"Blacktown","postcode":"2148","lat":-33.7688,"lng":150.9061},
  {"name":"Seven Hills","postcode":"2147","lat":-33.7737,"lng":150.9358},
  {"name":"Toongabbie","postcode":"2146","lat":-33.7943,"lng":150.9532},
  {"name":"Mt Druitt","postcode":"2770","lat":-33.7688,"lng":150.8226},
  {"name":"Rooty Hill","postcode":"2766","lat":-33.7711,"lng":150.8447},
  {"name":"St Marys","postcode":"2760","lat":-33.7632,"lng":150.7744},
  {"name":"Penrith","postcode":"2750","lat":-33.7511,"lng":150.6942},
  {"name":"Lidcombe","postcode":"2141","lat":-33.8628,"lng":151.044},
  {"name":"Berala","postcode":"2141","lat":-33.869,"lng":151.0323},
  {"name":"Regents Park","postcode":"2143","lat":-33.8812,"lng":151.0215},
  {"name":"Silverwater","postcode":"2128","lat":-33.8365,"lng":151.0547},
  {"name":"Newington","postcode":"2127","lat":-33.8371,"lng":151.0725},
  {"name":"Sydney Olympic Park","postcode":"2127","lat":-33.8468,"lng":151.0699},
  {"name":"Rydalmere","postcode":"2116","lat":-33.8138,"lng":151.0333},
  {"name":"Dundas","postcode":"2117","lat":-33.8006,"lng":151.0354},
  {"name":"Ermington","postcode":"2115","lat":-33.8131,"lng":151.0527},
  {"name":"Harris Park","postcode":"2150","lat":-33.8215,"lng":151.0082},
  {"name":"Chester Hill","postcode":"2162","lat":-33.8813,"lng":151.0023},
  {"name":"Villawood","postcode":"2163","lat":-33.884,"lng":150.9782},
  {"name":"Carramar","postcode":"2163","lat":-33.8878,"lng":150.9667},
  {"name":"Lansdowne","postcode":"2163","lat":-33.8954,"lng":150.954},
  {"name":"Emu Plains","postcode":"2750","lat":-33.7507,"lng":150.6656},
  {"name":"Glenbrook","postcode":"2773","lat":-33.7707,"lng":150.6234},
  {"name":"Springwood","postcode":"2777","lat":-33.6987,"lng":150.5643},
  {"name":"Blaxland","postcode":"2774","lat":-33.742,"lng":150.6078},
  {"name":"Katoomba","postcode":"2780","lat":-33.7139,"lng":150.3111},
  {"name":"Leura","postcode":"2780","lat":-33.7147,"lng":150.3343},
  {"name":"Wentworth Falls","postcode":"2782","lat":-33.7097,"lng":150.3755},
  {"name":"Faulconbridge","postcode":"2776","lat":-33.7003,"lng":150.5322},
  {"name":"Hazelbrook","postcode":"2779","lat":-33.7236,"lng":150.4587},
  {"name":"North Sydney","postcode":"2060","lat":-33.8388,"lng":151.2083},
  {"name":"Chatswood","postcode":"2067","lat":-33.7969,"lng":151.1832},
  {"name":"Lane Cove","postcode":"2066","lat":-33.8148,"lng":151.1702},
  {"name":"Ryde","postcode":"2112","lat":-33.8133,"lng":151.1048},
  {"name":"Eastwood","postcode":"2122","lat":-33.7924,"lng":151.0814},
  {"name":"Epping","postcode":"2121","lat":-33.7727,"lng":151.0817},
  {"name":"Macquarie Park","postcode":"2113","lat":-33.7767,"lng":151.1249},
  {"name":"Marsfield","postcode":"2122","lat":-33.7796,"lng":151.1036},
  {"name":"Hornsby","postcode":"2077","lat":-33.7029,"lng":151.0987},
  {"name":"Wahroonga","postcode":"2076","lat":-33.7184,"lng":151.1117},
  {"name":"Turramurra","postcode":"2074","lat":-33.734,"lng":151.1284},
  {"name":"Gordon","postcode":"2072","lat":-33.7555,"lng":151.1524},
  {"name":"Killara","postcode":"2071","lat":-33.7651,"lng":151.1621},
  {"name":"Lindfield","postcode":"2070","lat":-33.7748,"lng":151.1703},
  {"name":"Roseville","postcode":"2069","lat":-33.783,"lng":151.1774},
  {"name":"Pymble","postcode":"2073","lat":-33.7447,"lng":151.1427},
  {"name":"St Ives","postcode":"2075","lat":-33.7287,"lng":151.159},
  {"name":"Frenchs Forest","postcode":"2086","lat":-33.7474,"lng":151.2308},
  {"name":"Dee Why","postcode":"2099","lat":-33.7505,"lng":151.2863},
  {"name":"Manly","postcode":"2095","lat":-33.797,"lng":151.2859},
  {"name":"Mosman","postcode":"2088","lat":-33.8291,"lng":151.244},
  {"name":"Neutral Bay","postcode":"2089","lat":-33.833,"lng":151.2196},
  {"name":"Cremorne","postcode":"2090","lat":-33.8267,"lng":151.2264},
  {"name":"Artarmon","postcode":"2064","lat":-33.809,"lng":151.1836},
  {"name":"Willoughby","postcode":"2068","lat":-33.7971,"lng":151.2001},
  {"name":"Naremburn","postcode":"2065","lat":-33.8098,"lng":151.2025},
  {"name":"Crows Nest","postcode":"2065","lat":-33.8265,"lng":151.2042},
  {"name":"Berowra","postcode":"2081","lat":-33.6206,"lng":151.1534},
  {"name":"Cherrybrook","postcode":"2126","lat":-33.7278,"lng":151.0475},
  {"name":"Thornleigh","postcode":"2120","lat":-33.728,"lng":151.0767},
  {"name":"Pennant Hills","postcode":"2120","lat":-33.7389,"lng":151.071},
  {"name":"Normanhurst","postcode":"2076","lat":-33.716,"lng":151.0937},
  {"name":"Waitara","postcode":"2077","lat":-33.7113,"lng":151.102},
  {"name":"Asquith","postcode":"2078","lat":-33.6879,"lng":151.1052},
  {"name":"Mt Colah","postcode":"2079","lat":-33.6704,"lng":151.1122},
  {"name":"Mt Kuring-gai","postcode":"2080","lat":-33.649,"lng":151.1239},
  {"name":"Beecroft","postcode":"2119","lat":-33.7501,"lng":151.0641},
  {"name":"Carlingford","postcode":"2118","lat":-33.7836,"lng":151.0467},
  {"name":"Castle Hill","postcode":"2154","lat":-33.7313,"lng":151.004},
  {"name":"Baulkham Hills","postcode":"2153","lat":-33.7621,"lng":150.9918},
  {"name":"Bella Vista","postcode":"2153","lat":-33.7376,"lng":150.9501},
  {"name":"Norwest","postcode":"2153","lat":-33.7318,"lng":150.9563},
  {"name":"Kellyville","postcode":"2155","lat":-33.7204,"lng":150.9538},
  {"name":"Rouse Hill","postcode":"2155","lat":-33.6821,"lng":150.9159},
  {"name":"The Ponds","postcode":"2769","lat":-33.7021,"lng":150.9152},
  {"name":"Dural","postcode":"2158","lat":-33.6801,"lng":151.0378},
  {"name":"Galston","postcode":"2159","lat":-33.6503,"lng":151.0601},
  {"name":"Bondi","postcode":"2026","lat":-33.8915,"lng":151.2652},
  {"name":"Bondi Junction","postcode":"2022","lat":-33.8918,"lng":151.247},
  {"name":"Double Bay","postcode":"2028","lat":-33.8764,"lng":151.2384},
  {"name":"Rose Bay","postcode":"2029","lat":-33.8692,"lng":151.2557},
  {"name":"Vaucluse","postcode":"2030","lat":-33.8578,"lng":151.2711},
  {"name":"Watsons Bay","postcode":"2030","lat":-33.8438,"lng":151.281},
  {"name":"Coogee","postcode":"2034","lat":-33.9215,"lng":151.2555},
  {"name":"Randwick","postcode":"2031","lat":-33.9133,"lng":151.2434},
  {"name":"Maroubra","postcode":"2035","lat":-33.9417,"lng":151.2393},
  {"name":"Kensington","postcode":"2033","lat":-33.907,"lng":151.2225},
  {"name":"Kingsford","postcode":"2032","lat":-33.9218,"lng":151.2283},
  {"name":"Mascot","postcode":"2020","lat":-33.9267,"lng":151.1928},
  {"name":"Botany","postcode":"2019","lat":-33.9458,"lng":151.199},
  {"name":"Eastgardens","postcode":"2036","lat":-33.9364,"lng":151.2247},
  {"name":"La Perouse","postcode":"2036","lat":-33.9871,"lng":151.2331},
  {"name":"Manly Vale","postcode":"2093","lat":-33.7861,"lng":151.274},
  {"name":"Brookvale","postcode":"2100","lat":-33.7676,"lng":151.2744},
  {"name":"Narrabeen","postcode":"2101","lat":-33.7116,"lng":151.2962},
  {"name":"Mona Vale","postcode":"2103","lat":-33.6773,"lng":151.3036},
  {"name":"Newport","postcode":"2106","lat":-33.6569,"lng":151.3174},
  {"name":"Avalon Beach","postcode":"2107","lat":-33.63,"lng":151.3292},
  {"name":"Palm Beach","postcode":"2108","lat":-33.5998,"lng":151.3228},
  {"name":"Warriewood","postcode":"2102","lat":-33.6892,"lng":151.2956},
  {"name":"Collaroy","postcode":"2097","lat":-33.7326,"lng":151.3012},
  {"name":"Curl Curl","postcode":"2096","lat":-33.7679,"lng":151.2918},
  {"name":"Freshwater","postcode":"2096","lat":-33.7821,"lng":151.2882},
  {"name":"Balgowlah","postcode":"2093","lat":-33.7966,"lng":151.2622},
  {"name":"Seaforth","postcode":"2092","lat":-33.796,"lng":151.2489},
  {"name":"Terrey Hills","postcode":"2084","lat":-33.6886,"lng":151.228},
  {"name":"North Parramatta","postcode":"2151","lat":-33.7983,"lng":151.0087},
  {"name":"Northmead","postcode":"2152","lat":-33.7879,"lng":150.9881},
  {"name":"Old Toongabbie","postcode":"2146","lat":-33.7928,"lng":150.9576},
  {"name":"Winston Hills","postcode":"2153","lat":-33.7768,"lng":150.9746},
  {"name":"Glenhaven","postcode":"2156","lat":-33.7044,"lng":151.0073},
  {"name":"Kenthurst","postcode":"2156","lat":-33.6567,"lng":151.0011},
  {"name":"Riverstone","postcode":"2765","lat":-33.6785,"lng":150.8628},
  {"name":"Schofields","postcode":"2762","lat":-33.7028,"lng":150.8659},
  {"name":"Quakers Hill","postcode":"2763","lat":-33.7302,"lng":150.8815},
  {"name":"Stanhope Gardens","postcode":"2768","lat":-33.7149,"lng":150.9174},
  {"name":"Marsden Park","postcode":"2765","lat":-33.6941,"lng":150.8355},
  {"name":"Jordan Springs","postcode":"2747","lat":-33.7367,"lng":150.7038},
  {"name":"Kingswood","postcode":"2747","lat":-33.7604,"lng":150.7198},
  {"name":"Werrington","postcode":"2747","lat":-33.7506,"lng":150.7578},
  {"name":"Cambridge Park","postcode":"2747","lat":-33.7432,"lng":150.7255},
  {"name":"Gosford","postcode":"2250","lat":-33.427,"lng":151.3417},
  {"name":"Terrigal","postcode":"2260","lat":-33.447,"lng":151.4476},
  {"name":"Erina","postcode":"2250","lat":-33.4364,"lng":151.389},
  {"name":"Wyoming","postcode":"2250","lat":-33.4103,"lng":151.3552},
  {"name":"Woy Woy","postcode":"2256","lat":-33.485,"lng":151.3234},
  {"name":"Umina Beach","postcode":"2257","lat":-33.5219,"lng":151.3094},
  {"name":"Tuggerah","postcode":"2259","lat":-33.3069,"lng":151.4169},
  {"name":"The Entrance","postcode":"2261","lat":-33.3395,"lng":151.4928},
  {"name":"Kariong","postcode":"2250","lat":-33.4378,"lng":151.2963},
  {"name":"Wollongong","postcode":"2500","lat":-34.4249,"lng":150.8931},
  {"name":"Shellharbour","postcode":"2529","lat":-34.583,"lng":150.8688},
  {"name":"Kiama","postcode":"2533","lat":-34.671,"lng":150.8541},
  {"name":"Thirroul","postcode":"2515","lat":-34.3184,"lng":150.9231},
  {"name":"Corrimal","postcode":"2518","lat":-34.3759,"lng":150.8992},
  {"name":"Figtree","postcode":"2525","lat":-34.4401,"lng":150.8613},
  {"name":"Dapto","postcode":"2530","lat":-34.5008,"lng":150.7911},
  {"name":"Helensburgh","postcode":"2508","lat":-34.1779,"lng":151.0096},
  {"name":"Stanwell Park","postcode":"2508","lat":-34.2268,"lng":150.9892},
  {"name":"Newcastle","postcode":"2300","lat":-32.9283,"lng":151.7817},
  {"name":"Charlestown","postcode":"2290","lat":-32.9657,"lng":151.6941},
  {"name":"Maitland","postcode":"2320","lat":-32.735,"lng":151.5589},
  {"name":"Cessnock","postcode":"2325","lat":-32.8323,"lng":151.3563},
  {"name":"Lake Macquarie","postcode":"2280","lat":-33.0651,"lng":151.6568},
  {"name":"Raymond Terrace","postcode":"2324","lat":-32.7611,"lng":151.7368},
  {"name":"Canberra","postcode":"2601","lat":-35.2809,"lng":149.13},
  {"name":"Queanbeyan","postcode":"2620","lat":-35.3539,"lng":149.2365},
  {"name":"Belconnen","postcode":"2617","lat":-35.2383,"lng":149.0658},
  {"name":"Woden","postcode":"2606","lat":-35.3464,"lng":149.0869},
  {"name":"Tuggeranong","postcode":"2900","lat":-35.4151,"lng":149.066},
  {"name":"Richmond","postcode":"2753","lat":-33.5985,"lng":150.7514},
  {"name":"Windsor","postcode":"2756","lat":-33.6078,"lng":150.8146},
  {"name":"Kurrajong","postcode":"2758","lat":-33.5544,"lng":150.6545},
  {"name":"Wisemans Ferry","postcode":"2775","lat":-33.3814,"lng":150.9862},
  {"name":"Picton","postcode":"2571","lat":-34.1791,"lng":150.6094},
  {"name":"Appin","postcode":"2560","lat":-34.2011,"lng":150.7881},
  {"name":"Wollondilly","postcode":"2571","lat":-34.1595,"lng":150.5743},
  {"name":"Lithgow","postcode":"2790","lat":-33.4929,"lng":150.1572},
  {"name":"Bowral","postcode":"2576","lat":-34.4781,"lng":150.4179},
  {"name":"Mittagong","postcode":"2575","lat":-34.4549,"lng":150.4441},
  {"name":"Moss Vale","postcode":"2577","lat":-34.5455,"lng":150.3896},
  {"name":"Bathurst","postcode":"2795","lat":-33.4193,"lng":149.5781},
  {"name":"Orange","postcode":"2800","lat":-33.2835,"lng":149.1013},
  {"name":"Nowra","postcode":"2541","lat":-34.8813,"lng":150.6005},
  {"name":"Tempe","postcode":"2044","lat":-33.9238,"lng":151.1630},
  {"name":"Sydenham","postcode":"2044","lat":-33.9171,"lng":151.1682},
  {"name":"St Peters","postcode":"2044","lat":-33.9150,"lng":151.1770},
  {"name":"Homebush West","postcode":"2140","lat":-33.8611,"lng":151.0615},
  {"name":"North Strathfield","postcode":"2137","lat":-33.8587,"lng":151.0908},
  {"name":"Rhodes","postcode":"2138","lat":-33.8310,"lng":151.0872},
  {"name":"Wentworth Point","postcode":"2127","lat":-33.8347,"lng":151.0780},
  {"name":"Meadowbank","postcode":"2114","lat":-33.8165,"lng":151.0880},
  {"name":"West Ryde","postcode":"2114","lat":-33.8077,"lng":151.0874},
  {"name":"Gladesville","postcode":"2111","lat":-33.8342,"lng":151.1285},
  {"name":"Hunters Hill","postcode":"2110","lat":-33.8354,"lng":151.1463},
  {"name":"Putney","postcode":"2112","lat":-33.8271,"lng":151.1071},
  {"name":"Denistone","postcode":"2114","lat":-33.7948,"lng":151.0851},
  {"name":"Telopea","postcode":"2117","lat":-33.7927,"lng":151.0412},
  {"name":"Oatlands","postcode":"2117","lat":-33.7907,"lng":151.0250},
  {"name":"Kellyville Ridge","postcode":"2155","lat":-33.7064,"lng":150.9355},
  {"name":"Beaumont Hills","postcode":"2155","lat":-33.6951,"lng":150.9361},
  {"name":"Box Hill","postcode":"2765","lat":-33.6508,"lng":150.9033},
  {"name":"Vineyard","postcode":"2765","lat":-33.6523,"lng":150.8472},
  {"name":"Mulgrave","postcode":"2756","lat":-33.6189,"lng":150.8270},
  {"name":"South Penrith","postcode":"2750","lat":-33.7700,"lng":150.6970},
  {"name":"Jamisontown","postcode":"2750","lat":-33.7657,"lng":150.6750},
  {"name":"Glenmore Park","postcode":"2745","lat":-33.7858,"lng":150.6760},
  {"name":"Cranebrook","postcode":"2749","lat":-33.7219,"lng":150.7082},
  {"name":"Oran Park","postcode":"2570","lat":-33.9928,"lng":150.7426},
  {"name":"Gregory Hills","postcode":"2557","lat":-34.0212,"lng":150.7752},
  {"name":"Spring Farm","postcode":"2570","lat":-34.0567,"lng":150.7106},
  {"name":"Austral","postcode":"2179","lat":-33.9312,"lng":150.8133},
  {"name":"Rossmore","postcode":"2557","lat":-33.9471,"lng":150.7918},
  {"name":"Catherine Field","postcode":"2557","lat":-33.9700,"lng":150.7700},
  {"name":"Harrington Park","postcode":"2567","lat":-34.0335,"lng":150.7346},
  {"name":"Mount Annan","postcode":"2567","lat":-34.0633,"lng":150.7614},
  {"name":"Currans Hill","postcode":"2567","lat":-34.0494,"lng":150.7532},
  {"name":"Waterfall","postcode":"2233","lat":-34.1335,"lng":150.9961},
  {"name":"Otford","postcode":"2508","lat":-34.2106,"lng":150.9990},
  {"name":"Scarborough","postcode":"2515","lat":-34.2698,"lng":150.9604},
  {"name":"Coledale","postcode":"2515","lat":-34.2895,"lng":150.9463},
  {"name":"Austinmer","postcode":"2515","lat":-34.3059,"lng":150.9326},
  {"name":"Bulli","postcode":"2516","lat":-34.3371,"lng":150.9123},
  {"name":"Woonona","postcode":"2517","lat":-34.3519,"lng":150.9019},
  {"name":"Unanderra","postcode":"2526","lat":-34.4575,"lng":150.8486},
  {"name":"Warrawong","postcode":"2502","lat":-34.4826,"lng":150.8836},
  {"name":"Port Kembla","postcode":"2505","lat":-34.4827,"lng":150.8994},
  {"name":"Berkeley","postcode":"2506","lat":-34.4928,"lng":150.8517},
  {"name":"Albion Park","postcode":"2527","lat":-34.5694,"lng":150.7708}
]
